[{"Venue_Name":"National Sawdust","Lat":60.3979873,"Long":5.31878,"Eccentricity":0,"Degree":0,"Authority":0.048724692,"Harmonic Closeness Centrality":0.0,"Weighted Degree":10,"type":"venue","venue_city":"New York City","venue_country":"United States of America","Closeness Centrality":0.0,"Hub":0.048725154,"Eigenvector Centrality":0.034482759,"Clustering Coefficient":1.0,"Betweenness Centrality":0.0,"Number of triangles":36},{"Venue_Name":"Wytw\u00f3rnia","Lat":59.9078346,"Long":10.7520679,"Eccentricity":0,"Degree":0,"Authority":0.05720434,"Harmonic Closeness Centrality":0.0,"Weighted Degree":10,"type":"venue","venue_city":"\u0141\u00f3d\u017a","venue_country":"Poland","Closeness Centrality":0.0,"Hub":0.057204813,"Eigenvector Centrality":0.034482759,"Clustering Coefficient":1.0,"Betweenness Centrality":0.0,"Number of triangles":45},{"Venue_Name":"Luzerner Theater","Lat":59.9192306,"Long":10.752029,"Eccentricity":0,"Degree":0,"Authority":0.05067829,"Harmonic Closeness Centrality":0.0,"Weighted Degree":10,"type":"venue","venue_city":"Lucerne","venue_country":"Switzerland","Closeness Centrality":0.0,"Hub":0.050678708,"Eigenvector Centrality":0.034482759,"Clustering Coefficient":1.0,"Betweenness Centrality":0.0,"Number of triangles":45},{"Venue_Name":"Kulturkirken JAKOB","Lat":59.9222982,"Long":10.7659157,"Eccentricity":2,"Degree":8,"Authority":0.046517555,"Harmonic Closeness Centrality":0.54040404,"Weighted Degree":10,"type":"venue","venue_city":"Oslo","venue_country":"Norway","Closeness Centrality":0.521052632,"Hub":0.046518005,"Eigenvector Centrality":0.139717616,"Clustering Coefficient":1.0,"Betweenness Centrality":0.0,"Number of triangles":36},{"Venue_Name":"Cafeteatret","Lat":59.9172881,"Long":10.7746369,"Eccentricity":2,"Degree":3,"Authority":0.032979283,"Harmonic Closeness Centrality":0.515151515,"Weighted Degree":4,"type":"venue","venue_city":"Oslo","venue_country":"Norway","Closeness Centrality":0.507692308,"Hub":0.032979913,"Eigenvector Centrality":0.081759182,"Clustering Coefficient":1.0,"Betweenness Centrality":0.0,"Number of triangles":6},{"Venue_Name":"Chapel Performance Space at Good Shepherd Center","Lat":40.647253,"Long":-74.017383,"Eccentricity":0,"Degree":0,"Authority":0.05995738,"Harmonic Closeness Centrality":0.0,"Weighted Degree":10,"type":"venue","venue_city":"Seattle","venue_country":"United States of America","Closeness Centrality":0.0,"Hub":0.059957936,"Eigenvector Centrality":0.034482759,"Clustering Coefficient":1.0,"Betweenness Centrality":0.0,"Number of triangles":45},{"Venue_Name":"Tullikamarin\u00a0Pakkahuone","Lat":53.5413305,"Long":9.9844647,"Eccentricity":0,"Degree":0,"Authority":0.05720434,"Harmonic Closeness Centrality":0.0,"Weighted Degree":10,"type":"venue","venue_city":"Tampere","venue_country":"Finland","Closeness Centrality":0.0,"Hub":0.057204813,"Eigenvector Centrality":0.034482759,"Clustering Coefficient":1.0,"Betweenness Centrality":0.0,"Number of triangles":45},{"Venue_Name":"Oslo Domkirke","Lat":60.3892166,"Long":5.3289825,"Eccentricity":2,"Degree":7,"Authority":0.06954783,"Harmonic Closeness Centrality":0.535353535,"Weighted Degree":12,"type":"venue","venue_city":"Oslo","venue_country":"Norway","Closeness Centrality":0.518324607,"Hub":0.06954843,"Eigenvector Centrality":0.14354477,"Clustering Coefficient":1.0,"Betweenness Centrality":0.0,"Number of triangles":55},{"Venue_Name":"Pantheon Bonn","Lat":60.3826705,"Long":5.3255039,"Eccentricity":0,"Degree":0,"Authority":0.05067829,"Harmonic Closeness Centrality":0.0,"Weighted Degree":11,"type":"venue","venue_city":"Bonn","venue_country":"Germany","Closeness Centrality":0.0,"Hub":0.050678708,"Eigenvector Centrality":0.034482759,"Clustering Coefficient":1.0,"Betweenness Centrality":0.0,"Number of triangles":45},{"Venue_Name":"Kulturhuset Husnes","Lat":60.3979873,"Long":5.3109383,"Eccentricity":2,"Degree":9,"Authority":0.05067829,"Harmonic Closeness Centrality":0.545454545,"Weighted Degree":11,"type":"venue","venue_city":"Husnes","venue_country":"Norway","Closeness Centrality":0.523809524,"Hub":0.050678708,"Eigenvector Centrality":0.15981049,"Clustering Coefficient":1.0,"Betweenness Centrality":0.0,"Number of triangles":45},{"Venue_Name":"Boston Conservatory Ipswitch Building","Lat":60.3979873,"Long":5.3109383,"Eccentricity":0,"Degree":0,"Authority":0.048724692,"Harmonic Closeness Centrality":0.0,"Weighted Degree":10,"type":"venue","venue_city":"Boston","venue_country":"United States of America","Closeness Centrality":0.0,"Hub":0.048725154,"Eigenvector Centrality":0.034482759,"Clustering Coefficient":1.0,"Betweenness Centrality":0.0,"Number of triangles":36},{"Venue_Name":"Kunstnerneshus","Lat":60.3965922,"Long":5.3149231,"Eccentricity":2,"Degree":15,"Authority":0.13828011,"Harmonic Closeness Centrality":0.575757576,"Weighted Degree":40,"type":"venue","venue_city":"Oslo","venue_country":"Norway","Closeness Centrality":0.540983607,"Hub":0.13827959,"Eigenvector Centrality":0.210714315,"Clustering Coefficient":0.290552585,"Betweenness Centrality":30.5,"Number of triangles":163},{"Venue_Name":"Johanneskirken","Lat":60.3922944,"Long":5.3224448,"Eccentricity":2,"Degree":7,"Authority":0.042988177,"Harmonic Closeness Centrality":0.535353535,"Weighted Degree":9,"type":"venue","venue_city":"Bergen","venue_country":"Norway","Closeness Centrality":0.518324607,"Hub":0.04298866,"Eigenvector Centrality":0.123310731,"Clustering Coefficient":1.0,"Betweenness Centrality":0.0,"Number of triangles":28},{"Venue_Name":"N.N.","Lat":47.95209,"Long":8.4926611,"Eccentricity":0,"Degree":0,"Authority":0.064262755,"Harmonic Closeness Centrality":0.0,"Weighted Degree":34,"type":"venue","venue_city":"Hamburg","venue_country":"Germany","Closeness Centrality":0.0,"Hub":0.064262874,"Eigenvector Centrality":0.068965517,"Clustering Coefficient":0.533333333,"Betweenness Centrality":0.0,"Number of triangles":64},{"Venue_Name":"Kulturhuset Gimle","Lat":60.3907125,"Long":5.3287172,"Eccentricity":2,"Degree":7,"Authority":0.042988177,"Harmonic Closeness Centrality":0.535353535,"Weighted Degree":10,"type":"venue","venue_city":"Bergen","venue_country":"Norway","Closeness Centrality":0.518324607,"Hub":0.04298866,"Eigenvector Centrality":0.123310731,"Clustering Coefficient":1.0,"Betweenness Centrality":0.0,"Number of triangles":28},{"Venue_Name":"k4 Galleri","Lat":51.0504088,"Long":13.7372621,"Eccentricity":2,"Degree":9,"Authority":0.05569338,"Harmonic Closeness Centrality":0.545454545,"Weighted Degree":10,"type":"venue","venue_city":"Oslo","venue_country":"Norway","Closeness Centrality":0.523809524,"Hub":0.055693842,"Eigenvector Centrality":0.167891193,"Clustering Coefficient":1.0,"Betweenness Centrality":0.0,"Number of triangles":45},{"Venue_Name":"Dokkhuset Scene","Lat":62.7402591,"Long":7.1808245,"Eccentricity":2,"Degree":7,"Authority":0.042988177,"Harmonic Closeness Centrality":0.535353535,"Weighted Degree":9,"type":"venue","venue_city":"Trondheim","venue_country":"Norway","Closeness Centrality":0.518324607,"Hub":0.04298866,"Eigenvector Centrality":0.123310731,"Clustering Coefficient":1.0,"Betweenness Centrality":0.0,"Number of triangles":28},{"Venue_Name":"Nes Kirke","Lat":60.392208,"Long":5.3223816,"Eccentricity":2,"Degree":8,"Authority":0.046517555,"Harmonic Closeness Centrality":0.54040404,"Weighted Degree":10,"type":"venue","venue_city":"Sauherad","venue_country":"Norway","Closeness Centrality":0.521052632,"Hub":0.046518005,"Eigenvector Centrality":0.139717616,"Clustering Coefficient":1.0,"Betweenness Centrality":0.0,"Number of triangles":36},{"Venue_Name":"Bergen Kj\u00f8tt","Lat":60.3958114,"Long":5.3093656,"Eccentricity":2,"Degree":16,"Authority":0.09645421,"Harmonic Closeness Centrality":0.580808081,"Weighted Degree":32,"type":"venue","venue_city":"Bergen","venue_country":"Norway","Closeness Centrality":0.543956044,"Hub":0.096454285,"Eigenvector Centrality":0.247386297,"Clustering Coefficient":0.442857143,"Betweenness Centrality":31.66666667,"Number of triangles":93},{"Venue_Name":"Haus der Kulturen der Welt","Lat":47.5460129,"Long":7.5946478,"Eccentricity":0,"Degree":0,"Authority":0.05067829,"Harmonic Closeness Centrality":0.0,"Weighted Degree":10,"type":"venue","venue_city":"Berlin","venue_country":"Germany","Closeness Centrality":0.0,"Hub":0.050678708,"Eigenvector Centrality":0.034482759,"Clustering Coefficient":1.0,"Betweenness Centrality":0.0,"Number of triangles":45},{"Venue_Name":"Melahuset","Lat":60.3914057,"Long":5.3213859,"Eccentricity":2,"Degree":9,"Authority":0.051356744,"Harmonic Closeness Centrality":0.545454545,"Weighted Degree":9,"type":"venue","venue_city":"Oslo","venue_country":"Norway","Closeness Centrality":0.523809524,"Hub":0.05135725,"Eigenvector Centrality":0.177532787,"Clustering Coefficient":1.0,"Betweenness Centrality":0.0,"Number of triangles":36},{"Venue_Name":"Sisu Percussion Trio","Lat":60.3979873,"Long":5.3109383,"Eccentricity":2,"Degree":2,"Authority":0.029540299,"Harmonic Closeness Centrality":0.51010101,"Weighted Degree":2,"type":"venue","venue_city":"Oslo","venue_country":"Norway","Closeness Centrality":0.505102041,"Hub":0.029541034,"Eigenvector Centrality":0.075239144,"Clustering Coefficient":1.0,"Betweenness Centrality":0.0,"Number of triangles":1},{"Venue_Name":"Cornerteateret","Lat":59.8604169,"Long":5.7560337,"Eccentricity":2,"Degree":9,"Authority":0.05067829,"Harmonic Closeness Centrality":0.545454545,"Weighted Degree":11,"type":"venue","venue_city":"Bergen","venue_country":"Norway","Closeness Centrality":0.523809524,"Hub":0.050678708,"Eigenvector Centrality":0.15981049,"Clustering Coefficient":1.0,"Betweenness Centrality":0.0,"Number of triangles":45},{"Venue_Name":"Theater la Lune","Lat":47.0506024,"Long":8.3059444,"Eccentricity":0,"Degree":0,"Authority":0.05067829,"Harmonic Closeness Centrality":0.0,"Weighted Degree":10,"type":"venue","venue_city":"Stuttgart","venue_country":"Theater la Lune","Closeness Centrality":0.0,"Hub":0.050678708,"Eigenvector Centrality":0.034482759,"Clustering Coefficient":1.0,"Betweenness Centrality":0.0,"Number of triangles":45},{"Venue_Name":"Rewire Festival","Lat":60.3979873,"Long":5.3109383,"Eccentricity":0,"Degree":0,"Authority":0.05995738,"Harmonic Closeness Centrality":0.0,"Weighted Degree":10,"type":"venue","venue_city":"The Hague","venue_country":"Netherlands","Closeness Centrality":0.0,"Hub":0.059957936,"Eigenvector Centrality":0.034482759,"Clustering Coefficient":1.0,"Betweenness Centrality":0.0,"Number of triangles":45},{"Venue_Name":"Goethe Institute Tokyo","Lat":55.8590362,"Long":-4.2451528,"Eccentricity":0,"Degree":0,"Authority":0.05972222,"Harmonic Closeness Centrality":0.0,"Weighted Degree":10,"type":"venue","venue_city":"Tokyo","venue_country":"Japan","Closeness Centrality":0.0,"Hub":0.059722748,"Eigenvector Centrality":0.034482759,"Clustering Coefficient":1.0,"Betweenness Centrality":0.0,"Number of triangles":45},{"Venue_Name":"Ole Bull Akademiet","Lat":60.3878586,"Long":5.3217549,"Eccentricity":2,"Degree":7,"Authority":0.042988177,"Harmonic Closeness Centrality":0.535353535,"Weighted Degree":10,"type":"venue","venue_city":"Vossevangen","venue_country":"Norway","Closeness Centrality":0.518324607,"Hub":0.04298866,"Eigenvector Centrality":0.123310731,"Clustering Coefficient":1.0,"Betweenness Centrality":0.0,"Number of triangles":28},{"Venue_Name":"Norman Records","Lat":60.3825467,"Long":5.3263572,"Eccentricity":0,"Degree":0,"Authority":0.04671473,"Harmonic Closeness Centrality":0.0,"Weighted Degree":10,"type":"venue","venue_city":"Leeds","venue_country":"England","Closeness Centrality":0.0,"Hub":0.046715528,"Eigenvector Centrality":0.034482759,"Clustering Coefficient":1.0,"Betweenness Centrality":0.0,"Number of triangles":10},{"Venue_Name":"Southbank Centre","Lat":59.911125,"Long":10.740317,"Eccentricity":0,"Degree":0,"Authority":0.032979283,"Harmonic Closeness Centrality":0.0,"Weighted Degree":4,"type":"venue","venue_city":"London","venue_country":"England","Closeness Centrality":0.0,"Hub":0.032979913,"Eigenvector Centrality":0.034482759,"Clustering Coefficient":1.0,"Betweenness Centrality":0.0,"Number of triangles":6},{"Venue_Name":"Grieghallen","Lat":60.3892166,"Long":5.3289825,"Eccentricity":2,"Degree":8,"Authority":0.046517555,"Harmonic Closeness Centrality":0.54040404,"Weighted Degree":10,"type":"venue","venue_city":"Bergen","venue_country":"Norway","Closeness Centrality":0.521052632,"Hub":0.046518005,"Eigenvector Centrality":0.139717616,"Clustering Coefficient":1.0,"Betweenness Centrality":0.0,"Number of triangles":36},{"Venue_Name":"City Halls","Lat":57.313359,"Long":25.276401,"Eccentricity":0,"Degree":0,"Authority":0.05972222,"Harmonic Closeness Centrality":0.0,"Weighted Degree":10,"type":"venue","venue_city":"Glasgow","venue_country":"United Kingdom","Closeness Centrality":0.0,"Hub":0.059722748,"Eigenvector Centrality":0.034482759,"Clustering Coefficient":1.0,"Betweenness Centrality":0.0,"Number of triangles":45},{"Venue_Name":"University of Richmond Tucker-Boatwright Festival","Lat":49.2606052,"Long":-123.2459939,"Eccentricity":0,"Degree":0,"Authority":0.05995738,"Harmonic Closeness Centrality":0.0,"Weighted Degree":10,"type":"venue","venue_city":"Richmond","venue_country":"USA","Closeness Centrality":0.0,"Hub":0.059957936,"Eigenvector Centrality":0.034482759,"Clustering Coefficient":1.0,"Betweenness Centrality":0.0,"Number of triangles":45},{"Venue_Name":"Target Margin Theater","Lat":48.1613623,"Long":11.5547032,"Eccentricity":0,"Degree":0,"Authority":0.05995738,"Harmonic Closeness Centrality":0.0,"Weighted Degree":10,"type":"venue","venue_city":"New York City","venue_country":"United States of America","Closeness Centrality":0.0,"Hub":0.059957936,"Eigenvector Centrality":0.034482759,"Clustering Coefficient":1.0,"Betweenness Centrality":0.0,"Number of triangles":45},{"Venue_Name":"Th\u00e9\u00e2tre du Ch\u00e2telet","Lat":47.0504804,"Long":8.3116148,"Eccentricity":0,"Degree":0,"Authority":0.04786388,"Harmonic Closeness Centrality":0.0,"Weighted Degree":10,"type":"venue","venue_city":"Paris","venue_country":"France","Closeness Centrality":0.0,"Hub":0.047864344,"Eigenvector Centrality":0.034482759,"Clustering Coefficient":1.0,"Betweenness Centrality":0.0,"Number of triangles":36},{"Venue_Name":"Postremise","Lat":47.2659401,"Long":8.6767808,"Eccentricity":0,"Degree":0,"Authority":0.05067829,"Harmonic Closeness Centrality":0.0,"Weighted Degree":10,"type":"venue","venue_city":"Chur","venue_country":"Switzerland","Closeness Centrality":0.0,"Hub":0.050678708,"Eigenvector Centrality":0.034482759,"Clustering Coefficient":1.0,"Betweenness Centrality":0.0,"Number of triangles":45},{"Venue_Name":"Kunsthall 3,14","Lat":59.911506,"Long":10.7292472,"Eccentricity":2,"Degree":7,"Authority":0.06292172,"Harmonic Closeness Centrality":0.535353535,"Weighted Degree":10,"type":"venue","venue_city":"Bergen","venue_country":"Norway","Closeness Centrality":0.518324607,"Hub":0.062922254,"Eigenvector Centrality":0.147267538,"Clustering Coefficient":1.0,"Betweenness Centrality":0.0,"Number of triangles":45},{"Venue_Name":"Bergsj\u00f8st\u00f8len fjellstue","Lat":59.413581,"Long":5.2679869,"Eccentricity":2,"Degree":6,"Authority":0.04618372,"Harmonic Closeness Centrality":0.53030303,"Weighted Degree":10,"type":"venue","venue_city":"\u00c5l","venue_country":"Norway","Closeness Centrality":0.515625,"Hub":0.046184238,"Eigenvector Centrality":0.112374633,"Clustering Coefficient":1.0,"Betweenness Centrality":0.0,"Number of triangles":28},{"Venue_Name":"Nordnorsk Kunstnersenter","Lat":59.2096369,"Long":9.6056644,"Eccentricity":2,"Degree":10,"Authority":0.0970089,"Harmonic Closeness Centrality":0.550505051,"Weighted Degree":20,"type":"venue","venue_city":"Henningsv\u00e6r","venue_country":"Norway","Closeness Centrality":0.526595745,"Hub":0.097009264,"Eigenvector Centrality":0.176795697,"Clustering Coefficient":0.581699346,"Betweenness Centrality":5.0,"Number of triangles":89},{"Venue_Name":"Estonia Concert Hall","Lat":49.6185697,"Long":6.1424806,"Eccentricity":0,"Degree":0,"Authority":0.05972222,"Harmonic Closeness Centrality":0.0,"Weighted Degree":10,"type":"venue","venue_city":"Tallinn","venue_country":"Estonia","Closeness Centrality":0.0,"Hub":0.059722748,"Eigenvector Centrality":0.034482759,"Clustering Coefficient":1.0,"Betweenness Centrality":0.0,"Number of triangles":45},{"Venue_Name":"Stockholm University of the Arts","Lat":60.3979873,"Long":5.3109383,"Eccentricity":0,"Degree":0,"Authority":0.05972222,"Harmonic Closeness Centrality":0.0,"Weighted Degree":10,"type":"venue","venue_city":"Stockholm","venue_country":"Sweden","Closeness Centrality":0.0,"Hub":0.059722748,"Eigenvector Centrality":0.034482759,"Clustering Coefficient":1.0,"Betweenness Centrality":0.0,"Number of triangles":45},{"Venue_Name":"Kode","Lat":63.5480932,"Long":23.6964758,"Eccentricity":2,"Degree":7,"Authority":0.06954783,"Harmonic Closeness Centrality":0.535353535,"Weighted Degree":22,"type":"venue","venue_city":"Bergen","venue_country":"Norway","Closeness Centrality":0.518324607,"Hub":0.06954843,"Eigenvector Centrality":0.14354477,"Clustering Coefficient":1.0,"Betweenness Centrality":0.0,"Number of triangles":55},{"Venue_Name":"The Old Synagogue","Lat":52.5088592,"Long":13.2708552,"Eccentricity":0,"Degree":0,"Authority":0.05410606,"Harmonic Closeness Centrality":0.0,"Weighted Degree":10,"type":"venue","venue_city":"Canterbury","venue_country":"United Kingdom","Closeness Centrality":0.0,"Hub":0.05410651,"Eigenvector Centrality":0.034482759,"Clustering Coefficient":1.0,"Betweenness Centrality":0.0,"Number of triangles":45},{"Venue_Name":"Bourse de Commerce","Lat":52.0704978,"Long":4.3006999,"Eccentricity":0,"Degree":0,"Authority":0.05995738,"Harmonic Closeness Centrality":0.0,"Weighted Degree":10,"type":"venue","venue_city":"Paris","venue_country":"France","Closeness Centrality":0.0,"Hub":0.059957936,"Eigenvector Centrality":0.034482759,"Clustering Coefficient":1.0,"Betweenness Centrality":0.0,"Number of triangles":45},{"Venue_Name":"Kilden","Lat":48.774699,"Long":9.2031793,"Eccentricity":2,"Degree":3,"Authority":0.05067829,"Harmonic Closeness Centrality":0.515151515,"Weighted Degree":10,"type":"venue","venue_city":"Kristiansand","venue_country":"Norway","Closeness Centrality":0.507692308,"Hub":0.050678708,"Eigenvector Centrality":0.081759182,"Clustering Coefficient":1.0,"Betweenness Centrality":0.0,"Number of triangles":45},{"Venue_Name":"Landmark Bergen","Lat":45.7526404,"Long":4.8409819,"Eccentricity":2,"Degree":8,"Authority":0.050529968,"Harmonic Closeness Centrality":0.54040404,"Weighted Degree":18,"type":"venue","venue_city":"Bergen","venue_country":"Norway","Closeness Centrality":0.521052632,"Hub":0.05053054,"Eigenvector Centrality":0.166728954,"Clustering Coefficient":1.0,"Betweenness Centrality":0.0,"Number of triangles":28},{"Venue_Name":"Pite\u00e5 School of Music","Lat":60.3689499,"Long":5.3500943,"Eccentricity":0,"Degree":0,"Authority":0.042988177,"Harmonic Closeness Centrality":0.0,"Weighted Degree":10,"type":"venue","venue_city":"Pite\u00e5","venue_country":"Sweden","Closeness Centrality":0.0,"Hub":0.04298866,"Eigenvector Centrality":0.034482759,"Clustering Coefficient":1.0,"Betweenness Centrality":0.0,"Number of triangles":28},{"Venue_Name":"Uppsala Konstmuseum","Lat":60.3979873,"Long":5.3109383,"Eccentricity":0,"Degree":0,"Authority":0.05720434,"Harmonic Closeness Centrality":0.0,"Weighted Degree":10,"type":"venue","venue_city":"Uppsala","venue_country":"Sweden","Closeness Centrality":0.0,"Hub":0.057204813,"Eigenvector Centrality":0.034482759,"Clustering Coefficient":1.0,"Betweenness Centrality":0.0,"Number of triangles":45},{"Venue_Name":"Konzerthaus Wien","Lat":60.3979873,"Long":5.3109383,"Eccentricity":0,"Degree":0,"Authority":0.04786388,"Harmonic Closeness Centrality":0.0,"Weighted Degree":10,"type":"venue","venue_city":"Vienna","venue_country":"Austria","Closeness Centrality":0.0,"Hub":0.047864344,"Eigenvector Centrality":0.034482759,"Clustering Coefficient":1.0,"Betweenness Centrality":0.0,"Number of triangles":36},{"Venue_Name":"Avgarde (Festival)","Lat":60.389704,"Long":5.326552,"Eccentricity":2,"Degree":14,"Authority":0.08279201,"Harmonic Closeness Centrality":0.570707071,"Weighted Degree":20,"type":"venue","venue_city":"Bergen","venue_country":"Norway","Closeness Centrality":0.538043478,"Hub":0.08279225,"Eigenvector Centrality":0.233981557,"Clustering Coefficient":0.536764706,"Betweenness Centrality":21.0,"Number of triangles":73},{"Venue_Name":"Concertgebouw\u00a0","Lat":48.2008773,"Long":16.3773295,"Eccentricity":0,"Degree":0,"Authority":0.04786388,"Harmonic Closeness Centrality":0.0,"Weighted Degree":10,"type":"venue","venue_city":"Amsterdam","venue_country":"Netherlands","Closeness Centrality":0.0,"Hub":0.047864344,"Eigenvector Centrality":0.034482759,"Clustering Coefficient":1.0,"Betweenness Centrality":0.0,"Number of triangles":36},{"Venue_Name":"Schwere Reiter","Lat":39.9522188,"Long":-75.1932137,"Eccentricity":0,"Degree":0,"Authority":0.05995738,"Harmonic Closeness Centrality":0.0,"Weighted Degree":10,"type":"venue","venue_city":"Munich","venue_country":"Germany","Closeness Centrality":0.0,"Hub":0.059957936,"Eigenvector Centrality":0.034482759,"Clustering Coefficient":1.0,"Betweenness Centrality":0.0,"Number of triangles":45},{"Venue_Name":"Sowieso","Lat":59.9138688,"Long":10.7522454,"Eccentricity":0,"Degree":0,"Authority":0.05569338,"Harmonic Closeness Centrality":0.0,"Weighted Degree":10,"type":"venue","venue_city":"Dresden","venue_country":"Germany","Closeness Centrality":0.0,"Hub":0.055693842,"Eigenvector Centrality":0.034482759,"Clustering Coefficient":1.0,"Betweenness Centrality":0.0,"Number of triangles":45},{"Venue_Name":"USF Verftet","Lat":60.3894453,"Long":5.3238332,"Eccentricity":2,"Degree":8,"Authority":0.050529968,"Harmonic Closeness Centrality":0.54040404,"Weighted Degree":10,"type":"venue","venue_city":"Bergen","venue_country":"Norway","Closeness Centrality":0.521052632,"Hub":0.05053054,"Eigenvector Centrality":0.166728954,"Clustering Coefficient":1.0,"Betweenness Centrality":0.0,"Number of triangles":28},{"Venue_Name":"La Gare","Lat":48.8581596,"Long":2.2722369,"Eccentricity":0,"Degree":0,"Authority":0.042988177,"Harmonic Closeness Centrality":0.0,"Weighted Degree":16,"type":"venue","venue_city":"Paris","venue_country":"France","Closeness Centrality":0.0,"Hub":0.04298866,"Eigenvector Centrality":0.034482759,"Clustering Coefficient":1.0,"Betweenness Centrality":0.0,"Number of triangles":28},{"Venue_Name":"Centralstation","Lat":59.3386827,"Long":18.0451484,"Eccentricity":0,"Degree":0,"Authority":0.05720434,"Harmonic Closeness Centrality":0.0,"Weighted Degree":10,"type":"venue","venue_city":"Darmstadt","venue_country":"Germany","Closeness Centrality":0.0,"Hub":0.057204813,"Eigenvector Centrality":0.034482759,"Clustering Coefficient":1.0,"Betweenness Centrality":0.0,"Number of triangles":45},{"Venue_Name":"Fachhochschule Nordwest Schweiz","Lat":52.5161321,"Long":13.4090756,"Eccentricity":0,"Degree":0,"Authority":0.05067829,"Harmonic Closeness Centrality":0.0,"Weighted Degree":10,"type":"venue","venue_city":"Basel","venue_country":"Switzerland","Closeness Centrality":0.0,"Hub":0.050678708,"Eigenvector Centrality":0.034482759,"Clustering Coefficient":1.0,"Betweenness Centrality":0.0,"Number of triangles":45},{"Venue_Name":"Lille Lungeg\u00e5rdsvannet","Lat":60.3689499,"Long":5.3500943,"Eccentricity":2,"Degree":7,"Authority":0.042988177,"Harmonic Closeness Centrality":0.535353535,"Weighted Degree":10,"type":"venue","venue_city":"Bergen","venue_country":"Norway","Closeness Centrality":0.518324607,"Hub":0.04298866,"Eigenvector Centrality":0.123310731,"Clustering Coefficient":1.0,"Betweenness Centrality":0.0,"Number of triangles":28},{"Venue_Name":"University of Pennsylvania Library","Lat":60.3979873,"Long":5.3109383,"Eccentricity":0,"Degree":0,"Authority":0.05995738,"Harmonic Closeness Centrality":0.0,"Weighted Degree":10,"type":"venue","venue_city":"Philadelphia","venue_country":"United States of America","Closeness Centrality":0.0,"Hub":0.059957936,"Eigenvector Centrality":0.034482759,"Clustering Coefficient":1.0,"Betweenness Centrality":0.0,"Number of triangles":45},{"Venue_Name":"Nasjonal Jazzscene","Lat":60.4018914,"Long":5.3205603,"Eccentricity":2,"Degree":8,"Authority":0.050529968,"Harmonic Closeness Centrality":0.54040404,"Weighted Degree":10,"type":"venue","venue_city":"Oslo","venue_country":"Norway","Closeness Centrality":0.521052632,"Hub":0.05053054,"Eigenvector Centrality":0.166728954,"Clustering Coefficient":1.0,"Betweenness Centrality":0.0,"Number of triangles":28},{"Venue_Name":"New York Public Library","Lat":50.8476424,"Long":4.3571696,"Eccentricity":0,"Degree":0,"Authority":0.05067829,"Harmonic Closeness Centrality":0.0,"Weighted Degree":10,"type":"venue","venue_city":"New York City","venue_country":"United States of America","Closeness Centrality":0.0,"Hub":0.050678708,"Eigenvector Centrality":0.034482759,"Clustering Coefficient":1.0,"Betweenness Centrality":0.0,"Number of triangles":45},{"Venue_Name":"Telemark Kunstsenter","Lat":69.6492047,"Long":18.9553238,"Eccentricity":2,"Degree":5,"Authority":0.06999828,"Harmonic Closeness Centrality":0.525252525,"Weighted Degree":10,"type":"venue","venue_city":"Skien","venue_country":"Norway","Closeness Centrality":0.512953368,"Hub":0.069998935,"Eigenvector Centrality":0.117588037,"Clustering Coefficient":1.0,"Betweenness Centrality":0.0,"Number of triangles":45},{"Venue_Name":"Walt Disney Concert Hall","Lat":40.7366235,"Long":-73.9963675,"Eccentricity":0,"Degree":0,"Authority":0.048724692,"Harmonic Closeness Centrality":0.0,"Weighted Degree":10,"type":"venue","venue_city":"Los Angeles","venue_country":"United States of America","Closeness Centrality":0.0,"Hub":0.048725154,"Eigenvector Centrality":0.034482759,"Clustering Coefficient":1.0,"Betweenness Centrality":0.0,"Number of triangles":36},{"Venue_Name":"Sofienberg Kirke","Lat":53.3708985,"Long":-6.2489963,"Eccentricity":2,"Degree":8,"Authority":0.046517555,"Harmonic Closeness Centrality":0.54040404,"Weighted Degree":18,"type":"venue","venue_city":"Oslo","venue_country":"Norway","Closeness Centrality":0.521052632,"Hub":0.046518005,"Eigenvector Centrality":0.139717616,"Clustering Coefficient":1.0,"Betweenness Centrality":0.0,"Number of triangles":36},{"Venue_Name":"Bergen Kringkaster","Lat":60.5023912,"Long":5.5448782,"Eccentricity":2,"Degree":7,"Authority":0.06292172,"Harmonic Closeness Centrality":0.535353535,"Weighted Degree":10,"type":"venue","venue_city":"Bergen","venue_country":"Norway","Closeness Centrality":0.518324607,"Hub":0.062922254,"Eigenvector Centrality":0.147267538,"Clustering Coefficient":1.0,"Betweenness Centrality":0.0,"Number of triangles":45},{"Venue_Name":"Amith\u00e9atre Cit\u00e9 de la Musique","Lat":52.356319,"Long":4.8791459,"Eccentricity":0,"Degree":0,"Authority":0.04786388,"Harmonic Closeness Centrality":0.0,"Weighted Degree":10,"type":"venue","venue_city":"Paris","venue_country":"France","Closeness Centrality":0.0,"Hub":0.047864344,"Eigenvector Centrality":0.034482759,"Clustering Coefficient":1.0,"Betweenness Centrality":0.0,"Number of triangles":36},{"Venue_Name":"Kapellet, Olivecronasv\u00e4g 22-26, Stockholm","Lat":59.8532689,"Long":17.6350962,"Eccentricity":0,"Degree":0,"Authority":0.05720434,"Harmonic Closeness Centrality":0.0,"Weighted Degree":10,"type":"venue","venue_city":"Stockholm","venue_country":"Sweden","Closeness Centrality":0.0,"Hub":0.057204813,"Eigenvector Centrality":0.034482759,"Clustering Coefficient":1.0,"Betweenness Centrality":0.0,"Number of triangles":45},{"Venue_Name":"Olavsfest","Lat":63.1141149,"Long":21.6822203,"Eccentricity":2,"Degree":7,"Authority":0.06954783,"Harmonic Closeness Centrality":0.535353535,"Weighted Degree":12,"type":"venue","venue_city":"Trondheim","venue_country":"Norway","Closeness Centrality":0.518324607,"Hub":0.06954843,"Eigenvector Centrality":0.14354477,"Clustering Coefficient":1.0,"Betweenness Centrality":0.0,"Number of triangles":55},{"Venue_Name":"Hove Steinkyrkje","Lat":60.3979873,"Long":5.3109383,"Eccentricity":2,"Degree":8,"Authority":0.046517555,"Harmonic Closeness Centrality":0.54040404,"Weighted Degree":10,"type":"venue","venue_city":"Vik i Sogn","venue_country":"Norway","Closeness Centrality":0.521052632,"Hub":0.046518005,"Eigenvector Centrality":0.139717616,"Clustering Coefficient":1.0,"Betweenness Centrality":0.0,"Number of triangles":36},{"Venue_Name":"Mingei international Museum","Lat":47.6640968,"Long":-122.3311691,"Eccentricity":0,"Degree":0,"Authority":0.05995738,"Harmonic Closeness Centrality":0.0,"Weighted Degree":10,"type":"venue","venue_city":"San Diego","venue_country":"United States of America","Closeness Centrality":0.0,"Hub":0.059957936,"Eigenvector Centrality":0.034482759,"Clustering Coefficient":1.0,"Betweenness Centrality":0.0,"Number of triangles":45},{"Venue_Name":"All Hallows Chapel DCU","Lat":59.9222982,"Long":10.7659157,"Eccentricity":0,"Degree":0,"Authority":0.046517555,"Harmonic Closeness Centrality":0.0,"Weighted Degree":10,"type":"venue","venue_city":"Dublin","venue_country":"Ireland","Closeness Centrality":0.0,"Hub":0.046518005,"Eigenvector Centrality":0.034482759,"Clustering Coefficient":1.0,"Betweenness Centrality":0.0,"Number of triangles":36},{"Venue_Name":"Jazzclub Tonne","Lat":60.389704,"Long":5.326552,"Eccentricity":0,"Degree":0,"Authority":0.04618372,"Harmonic Closeness Centrality":0.0,"Weighted Degree":10,"type":"venue","venue_city":"Dresden","venue_country":"Germany","Closeness Centrality":0.0,"Hub":0.046184238,"Eigenvector Centrality":0.034482759,"Clustering Coefficient":1.0,"Betweenness Centrality":0.0,"Number of triangles":28},{"Venue_Name":"Beyond this Point","Lat":39.7649331,"Long":-86.1621877,"Eccentricity":0,"Degree":0,"Authority":0.05972222,"Harmonic Closeness Centrality":0.0,"Weighted Degree":10,"type":"venue","venue_city":"Chicago","venue_country":"United States of America","Closeness Centrality":0.0,"Hub":0.059722748,"Eigenvector Centrality":0.034482759,"Clustering Coefficient":1.0,"Betweenness Centrality":0.0,"Number of triangles":45},{"Venue_Name":"Gyldendalhuset","Lat":59.3423063,"Long":18.0499898,"Eccentricity":2,"Degree":2,"Authority":0.042988177,"Harmonic Closeness Centrality":0.51010101,"Weighted Degree":10,"type":"venue","venue_city":"Oslo","venue_country":"Norway","Closeness Centrality":0.505102041,"Hub":0.04298866,"Eigenvector Centrality":0.075239144,"Clustering Coefficient":1.0,"Betweenness Centrality":0.0,"Number of triangles":28},{"Venue_Name":"Konserthuset","Lat":55.6822857,"Long":12.552457,"Eccentricity":0,"Degree":0,"Authority":0.042988177,"Harmonic Closeness Centrality":0.0,"Weighted Degree":10,"type":"venue","venue_city":"Stockholm","venue_country":"Sweden","Closeness Centrality":0.0,"Hub":0.04298866,"Eigenvector Centrality":0.034482759,"Clustering Coefficient":1.0,"Betweenness Centrality":0.0,"Number of triangles":28},{"Venue_Name":"Gamle Munch","Lat":60.3979873,"Long":5.3109383,"Eccentricity":2,"Degree":3,"Authority":0.032979283,"Harmonic Closeness Centrality":0.515151515,"Weighted Degree":4,"type":"venue","venue_city":"Oslo","venue_country":"Norway","Closeness Centrality":0.507692308,"Hub":0.032979913,"Eigenvector Centrality":0.081759182,"Clustering Coefficient":1.0,"Betweenness Centrality":0.0,"Number of triangles":6},{"Venue_Name":"C I.II.III.IV. A","Lat":23.1290799,"Long":113.26436,"Eccentricity":0,"Degree":0,"Authority":0.05067829,"Harmonic Closeness Centrality":0.0,"Weighted Degree":10,"type":"venue","venue_city":"Brussels","venue_country":"Belgium","Closeness Centrality":0.0,"Hub":0.050678708,"Eigenvector Centrality":0.034482759,"Clustering Coefficient":1.0,"Betweenness Centrality":0.0,"Number of triangles":45},{"Venue_Name":"Artipelag","Lat":59.3350145,"Long":18.062717,"Eccentricity":0,"Degree":0,"Authority":0.042988177,"Harmonic Closeness Centrality":0.0,"Weighted Degree":18,"type":"venue","venue_city":"Gustavsberg","venue_country":"Sweden","Closeness Centrality":0.0,"Hub":0.04298866,"Eigenvector Centrality":0.034482759,"Clustering Coefficient":1.0,"Betweenness Centrality":0.0,"Number of triangles":28},{"Venue_Name":"Grieg Hall","Lat":59.3720374,"Long":9.2217506,"Eccentricity":2,"Degree":8,"Authority":0.046517555,"Harmonic Closeness Centrality":0.54040404,"Weighted Degree":10,"type":"venue","venue_city":"Bergen","venue_country":"Norway","Closeness Centrality":0.521052632,"Hub":0.046518005,"Eigenvector Centrality":0.139717616,"Clustering Coefficient":1.0,"Betweenness Centrality":0.0,"Number of triangles":36},{"Venue_Name":"Borealis","Lat":60.3979873,"Long":5.31878,"Eccentricity":1,"Degree":99,"Authority":0.56660616,"Harmonic Closeness Centrality":1.0,"Weighted Degree":251,"type":"venue","venue_city":"Bergen","venue_country":"Norway","Closeness Centrality":1.0,"Hub":0.56659716,"Eigenvector Centrality":1.0,"Clustering Coefficient":0.04324375,"Betweenness Centrality":4339.0,"Number of triangles":922},{"Venue_Name":"Kaf\u00e9 H\u00e6rverk","Lat":59.8100075,"Long":10.8011498,"Eccentricity":2,"Degree":3,"Authority":0.05067829,"Harmonic Closeness Centrality":0.515151515,"Weighted Degree":10,"type":"venue","venue_city":"Oslo","venue_country":"Norway","Closeness Centrality":0.507692308,"Hub":0.050678708,"Eigenvector Centrality":0.081759182,"Clustering Coefficient":1.0,"Betweenness Centrality":0.0,"Number of triangles":45},{"Venue_Name":"Radio Art Zone","Lat":48.2081664,"Long":16.3718643,"Eccentricity":0,"Degree":0,"Authority":0.06292172,"Harmonic Closeness Centrality":0.0,"Weighted Degree":10,"type":"venue","venue_city":"Esch-sur-Alzette","venue_country":"Luxemburg","Closeness Centrality":0.0,"Hub":0.062922254,"Eigenvector Centrality":0.034482759,"Clustering Coefficient":1.0,"Betweenness Centrality":0.0,"Number of triangles":45},{"Venue_Name":"Staatsoper Unter den Linden","Lat":53.667047,"Long":10.065604,"Eccentricity":0,"Degree":0,"Authority":0.04786388,"Harmonic Closeness Centrality":0.0,"Weighted Degree":10,"type":"venue","venue_city":"Berlin","venue_country":"Germany","Closeness Centrality":0.0,"Hub":0.047864344,"Eigenvector Centrality":0.034482759,"Clustering Coefficient":1.0,"Betweenness Centrality":0.0,"Number of triangles":36},{"Venue_Name":"Hordaland Kunstsenter","Lat":60.3952213,"Long":5.3151026,"Eccentricity":2,"Degree":10,"Authority":0.06925454,"Harmonic Closeness Centrality":0.550505051,"Weighted Degree":34,"type":"venue","venue_city":"Bergen","venue_country":"Norway","Closeness Centrality":0.526595745,"Hub":0.06925509,"Eigenvector Centrality":0.174530218,"Clustering Coefficient":0.590909091,"Betweenness Centrality":7.0,"Number of triangles":39},{"Venue_Name":"Cashmere Radio","Lat":65.2602307,"Long":-14.0095466,"Eccentricity":0,"Degree":0,"Authority":0.06999828,"Harmonic Closeness Centrality":0.0,"Weighted Degree":10,"type":"venue","venue_city":"Berlin","venue_country":"Germany","Closeness Centrality":0.0,"Hub":0.069998935,"Eigenvector Centrality":0.034482759,"Clustering Coefficient":1.0,"Betweenness Centrality":0.0,"Number of triangles":45},{"Venue_Name":"Korsholm kirke","Lat":63.1511342,"Long":22.2557476,"Eccentricity":0,"Degree":0,"Authority":0.06954783,"Harmonic Closeness Centrality":0.0,"Weighted Degree":12,"type":"venue","venue_city":"Korsholm","venue_country":"Finland","Closeness Centrality":0.0,"Hub":0.06954843,"Eigenvector Centrality":0.034482759,"Clustering Coefficient":1.0,"Betweenness Centrality":0.0,"Number of triangles":55},{"Venue_Name":"BKA Berliner Kabarett Anstalt","Lat":60.39225,"Long":5.31878,"Eccentricity":0,"Degree":0,"Authority":0.05410606,"Harmonic Closeness Centrality":0.0,"Weighted Degree":10,"type":"venue","venue_city":"Berlin","venue_country":"Germany","Closeness Centrality":0.0,"Hub":0.05410651,"Eigenvector Centrality":0.034482759,"Clustering Coefficient":1.0,"Betweenness Centrality":0.0,"Number of triangles":45},{"Venue_Name":"Oster\u00f8y Museum","Lat":-34.5824236,"Long":-58.4225973,"Eccentricity":2,"Degree":7,"Authority":0.06292172,"Harmonic Closeness Centrality":0.535353535,"Weighted Degree":10,"type":"venue","venue_city":"Gjerstad","venue_country":"Norway","Closeness Centrality":0.518324607,"Hub":0.062922254,"Eigenvector Centrality":0.147267538,"Clustering Coefficient":1.0,"Betweenness Centrality":0.0,"Number of triangles":45},{"Venue_Name":"Sey\u00f0isfj\u00f6r\u00f0ur Community Radio","Lat":59.9195363,"Long":10.7307925,"Eccentricity":0,"Degree":0,"Authority":0.06999828,"Harmonic Closeness Centrality":0.0,"Weighted Degree":10,"type":"venue","venue_city":"Sey\u00f0isfj\u00f6r\u00f0ur","venue_country":"Iceland","Closeness Centrality":0.0,"Hub":0.069998935,"Eigenvector Centrality":0.034482759,"Clustering Coefficient":1.0,"Betweenness Centrality":0.0,"Number of triangles":45},{"Venue_Name":"Vidzeme Concert Hall\u00a0","Lat":40.8079766,"Long":-73.9631989,"Eccentricity":0,"Degree":0,"Authority":0.05972222,"Harmonic Closeness Centrality":0.0,"Weighted Degree":10,"type":"venue","venue_city":"Vidzeme","venue_country":"Longvia","Closeness Centrality":0.0,"Hub":0.059722748,"Eigenvector Centrality":0.034482759,"Clustering Coefficient":1.0,"Betweenness Centrality":0.0,"Number of triangles":45},{"Venue_Name":"Praksis","Lat":59.2205369,"Long":10.9347012,"Eccentricity":2,"Degree":4,"Authority":0.05972222,"Harmonic Closeness Centrality":0.52020202,"Weighted Degree":10,"type":"venue","venue_city":"Oslo","venue_country":"Norway","Closeness Centrality":0.510309278,"Hub":0.059722748,"Eigenvector Centrality":0.098858536,"Clustering Coefficient":1.0,"Betweenness Centrality":0.0,"Number of triangles":45},{"Venue_Name":"Tou Scene","Lat":60.3167824,"Long":5.3543628,"Eccentricity":2,"Degree":9,"Authority":0.05067829,"Harmonic Closeness Centrality":0.545454545,"Weighted Degree":11,"type":"venue","venue_city":"Stavanger","venue_country":"Norway","Closeness Centrality":0.523809524,"Hub":0.050678708,"Eigenvector Centrality":0.15981049,"Clustering Coefficient":1.0,"Betweenness Centrality":0.0,"Number of triangles":45},{"Venue_Name":"Miller Theatre","Lat":60.3979873,"Long":5.3109383,"Eccentricity":0,"Degree":0,"Authority":0.05972222,"Harmonic Closeness Centrality":0.0,"Weighted Degree":10,"type":"venue","venue_city":"New York City","venue_country":"United States of America","Closeness Centrality":0.0,"Hub":0.059722748,"Eigenvector Centrality":0.034482759,"Clustering Coefficient":1.0,"Betweenness Centrality":0.0,"Number of triangles":45},{"Venue_Name":"H\u00e5logaland teater","Lat":60.3979873,"Long":5.3109383,"Eccentricity":0,"Degree":0,"Authority":0.0,"Harmonic Closeness Centrality":0.0,"Weighted Degree":0,"type":"venue","venue_city":"Troms\u00f8","venue_country":"Norway","Closeness Centrality":0.0,"Hub":0.0,"Eigenvector Centrality":0.0,"Clustering Coefficient":0.0,"Betweenness Centrality":0.0,"Number of triangles":0},{"Venue_Name":"Frequency Festival (Festival)","Lat":59.3394614,"Long":18.1010613,"Eccentricity":0,"Degree":0,"Authority":0.05972222,"Harmonic Closeness Centrality":0.0,"Weighted Degree":10,"type":"venue","venue_city":"Chicago","venue_country":"United States of America","Closeness Centrality":0.0,"Hub":0.059722748,"Eigenvector Centrality":0.034482759,"Clustering Coefficient":1.0,"Betweenness Centrality":0.0,"Number of triangles":45},{"Venue_Name":"Radialsystem","Lat":60.3979873,"Long":5.3109383,"Eccentricity":0,"Degree":0,"Authority":0.029540299,"Harmonic Closeness Centrality":0.0,"Weighted Degree":2,"type":"venue","venue_city":"Berlin","venue_country":"Germany","Closeness Centrality":0.0,"Hub":0.029541034,"Eigenvector Centrality":0.034482759,"Clustering Coefficient":1.0,"Betweenness Centrality":0.0,"Number of triangles":1},{"Venue_Name":"Swing\u2019n\u2019Sweet","Lat":59.9141259,"Long":10.7382132,"Eccentricity":2,"Degree":7,"Authority":0.042988177,"Harmonic Closeness Centrality":0.535353535,"Weighted Degree":9,"type":"venue","venue_city":"Bergen","venue_country":"Norway","Closeness Centrality":0.518324607,"Hub":0.04298866,"Eigenvector Centrality":0.123310731,"Clustering Coefficient":1.0,"Betweenness Centrality":0.0,"Number of triangles":28},{"Venue_Name":"Atelier Nord","Lat":48.1871956,"Long":16.3291988,"Eccentricity":2,"Degree":4,"Authority":0.05972222,"Harmonic Closeness Centrality":0.52020202,"Weighted Degree":10,"type":"venue","venue_city":"Oslo","venue_country":"Norway","Closeness Centrality":0.510309278,"Hub":0.059722748,"Eigenvector Centrality":0.098858536,"Clustering Coefficient":1.0,"Betweenness Centrality":0.0,"Number of triangles":45},{"Venue_Name":"Ridehuset","Lat":59.9138688,"Long":10.7522454,"Eccentricity":2,"Degree":2,"Authority":0.029540299,"Harmonic Closeness Centrality":0.51010101,"Weighted Degree":2,"type":"venue","venue_city":"Oslo","venue_country":"Norway","Closeness Centrality":0.505102041,"Hub":0.029541034,"Eigenvector Centrality":0.075239144,"Clustering Coefficient":1.0,"Betweenness Centrality":0.0,"Number of triangles":1},{"Venue_Name":"Isotop Fellesatelier","Lat":60.3825467,"Long":5.3263572,"Eccentricity":2,"Degree":3,"Authority":0.04671473,"Harmonic Closeness Centrality":0.515151515,"Weighted Degree":10,"type":"venue","venue_city":"Bergen","venue_country":"Norway","Closeness Centrality":0.507692308,"Hub":0.046715528,"Eigenvector Centrality":0.098962326,"Clustering Coefficient":1.0,"Betweenness Centrality":0.0,"Number of triangles":10},{"Venue_Name":"\u00d8stre","Lat":60.3912628,"Long":5.3220544,"Eccentricity":2,"Degree":16,"Authority":0.07174844,"Harmonic Closeness Centrality":0.580808081,"Weighted Degree":27,"type":"venue","venue_city":"Bergen","venue_country":"Norway","Closeness Centrality":0.543956044,"Hub":0.07174866,"Eigenvector Centrality":0.262509722,"Clustering Coefficient":0.541666667,"Betweenness Centrality":25.33333333,"Number of triangles":65},{"Venue_Name":"Pardon, To Tu","Lat":61.4985784,"Long":23.7766479,"Eccentricity":0,"Degree":0,"Authority":0.05720434,"Harmonic Closeness Centrality":0.0,"Weighted Degree":10,"type":"venue","venue_city":"Warsaw","venue_country":"Poland","Closeness Centrality":0.0,"Hub":0.057204813,"Eigenvector Centrality":0.034482759,"Clustering Coefficient":1.0,"Betweenness Centrality":0.0,"Number of triangles":45},{"Venue_Name":"Unmute","Lat":52.5354239,"Long":13.4062255,"Eccentricity":0,"Degree":0,"Authority":0.05067829,"Harmonic Closeness Centrality":0.0,"Weighted Degree":10,"type":"venue","venue_city":"Guangzhou","venue_country":"China","Closeness Centrality":0.0,"Hub":0.050678708,"Eigenvector Centrality":0.034482759,"Clustering Coefficient":1.0,"Betweenness Centrality":0.0,"Number of triangles":45},{"Venue_Name":"Tabakquartier - Zentrum f\u00fcr Kunst","Lat":50.9523344,"Long":6.9549608,"Eccentricity":0,"Degree":0,"Authority":0.05995738,"Harmonic Closeness Centrality":0.0,"Weighted Degree":10,"type":"venue","venue_city":"Bremen","venue_country":"Germany","Closeness Centrality":0.0,"Hub":0.059957936,"Eigenvector Centrality":0.034482759,"Clustering Coefficient":1.0,"Betweenness Centrality":0.0,"Number of triangles":45},{"Venue_Name":"The Stone NYC","Lat":40.7561275,"Long":-73.997305,"Eccentricity":0,"Degree":0,"Authority":0.048724692,"Harmonic Closeness Centrality":0.0,"Weighted Degree":10,"type":"venue","venue_city":"New York City","venue_country":"United States of America","Closeness Centrality":0.0,"Hub":0.048725154,"Eigenvector Centrality":0.034482759,"Clustering Coefficient":1.0,"Betweenness Centrality":0.0,"Number of triangles":36},{"Venue_Name":"Kaustinen Chamber Music Festival","Lat":60.3892166,"Long":5.3289825,"Eccentricity":0,"Degree":0,"Authority":0.06954783,"Harmonic Closeness Centrality":0.0,"Weighted Degree":12,"type":"venue","venue_city":"Kaustinen","venue_country":"Finland","Closeness Centrality":0.0,"Hub":0.06954843,"Eigenvector Centrality":0.034482759,"Clustering Coefficient":1.0,"Betweenness Centrality":0.0,"Number of triangles":55},{"Venue_Name":"Hochschule f\u00fcr Musik und Tanz K\u00f6ln","Lat":41.8781136,"Long":-87.6297982,"Eccentricity":0,"Degree":0,"Authority":0.05972222,"Harmonic Closeness Centrality":0.0,"Weighted Degree":10,"type":"venue","venue_city":"Cologne","venue_country":"Germany","Closeness Centrality":0.0,"Hub":0.059722748,"Eigenvector Centrality":0.034482759,"Clustering Coefficient":1.0,"Betweenness Centrality":0.0,"Number of triangles":45},{"Venue_Name":"Oleana","Lat":60.389704,"Long":5.326552,"Eccentricity":2,"Degree":4,"Authority":0.05410606,"Harmonic Closeness Centrality":0.52020202,"Weighted Degree":10,"type":"venue","venue_city":"Ytre Arna","venue_country":"Norway","Closeness Centrality":0.510309278,"Hub":0.05410651,"Eigenvector Centrality":0.099184108,"Clustering Coefficient":1.0,"Betweenness Centrality":0.0,"Number of triangles":45},{"Venue_Name":"ORF \u00f61","Lat":59.9222535,"Long":10.7581794,"Eccentricity":0,"Degree":0,"Authority":0.06292172,"Harmonic Closeness Centrality":0.0,"Weighted Degree":10,"type":"venue","venue_city":"Vienna","venue_country":"Austria","Closeness Centrality":0.0,"Hub":0.062922254,"Eigenvector Centrality":0.034482759,"Clustering Coefficient":1.0,"Betweenness Centrality":0.0,"Number of triangles":45},{"Venue_Name":"International Gamelan Festival 2018","Lat":37.5758243,"Long":-77.5397192,"Eccentricity":0,"Degree":0,"Authority":0.05995738,"Harmonic Closeness Centrality":0.0,"Weighted Degree":10,"type":"venue","venue_city":"Solo","venue_country":"Indonesia","Closeness Centrality":0.0,"Hub":0.059957936,"Eigenvector Centrality":0.034482759,"Clustering Coefficient":1.0,"Betweenness Centrality":0.0,"Number of triangles":45},{"Venue_Name":"Konsertkirken","Lat":59.306718,"Long":18.3471592,"Eccentricity":0,"Degree":0,"Authority":0.042988177,"Harmonic Closeness Centrality":0.0,"Weighted Degree":10,"type":"venue","venue_city":"Copenhagen","venue_country":"Denmark","Closeness Centrality":0.0,"Hub":0.04298866,"Eigenvector Centrality":0.034482759,"Clustering Coefficient":1.0,"Betweenness Centrality":0.0,"Number of triangles":28},{"Venue_Name":"Studio Annette","Lat":32.7311444,"Long":-117.150825,"Eccentricity":0,"Degree":0,"Authority":0.05995738,"Harmonic Closeness Centrality":0.0,"Weighted Degree":10,"type":"venue","venue_city":"Tel Aviv","venue_country":"Israel","Closeness Centrality":0.0,"Hub":0.059957936,"Eigenvector Centrality":0.034482759,"Clustering Coefficient":1.0,"Betweenness Centrality":0.0,"Number of triangles":45},{"Venue_Name":"Mariakirken","Lat":60.3979873,"Long":5.31878,"Eccentricity":2,"Degree":7,"Authority":0.042988177,"Harmonic Closeness Centrality":0.535353535,"Weighted Degree":10,"type":"venue","venue_city":"Bergen","venue_country":"Norway","Closeness Centrality":0.518324607,"Hub":0.04298866,"Eigenvector Centrality":0.123310731,"Clustering Coefficient":1.0,"Betweenness Centrality":0.0,"Number of triangles":28},{"Venue_Name":"Institute of Contemporary Arts","Lat":52.5103112,"Long":13.4286967,"Eccentricity":0,"Degree":0,"Authority":0.029540299,"Harmonic Closeness Centrality":0.0,"Weighted Degree":2,"type":"venue","venue_city":"London","venue_country":"United Kingdom","Closeness Centrality":0.0,"Hub":0.029541034,"Eigenvector Centrality":0.034482759,"Clustering Coefficient":1.0,"Betweenness Centrality":0.0,"Number of triangles":1},{"Venue_Name":"UKS Unge Kunstneres Samfund \/ Young Artists\u2019 Society","Lat":60.3897461,"Long":5.3264104,"Eccentricity":2,"Degree":8,"Authority":0.052560363,"Harmonic Closeness Centrality":0.54040404,"Weighted Degree":10,"type":"venue","venue_city":"Oslo","venue_country":"Norway","Closeness Centrality":0.521052632,"Hub":0.052560948,"Eigenvector Centrality":0.15196708,"Clustering Coefficient":1.0,"Betweenness Centrality":0.0,"Number of triangles":28},{"Venue_Name":"Storyville Jazz Club","Lat":60.3958295,"Long":5.3092902,"Eccentricity":2,"Degree":7,"Authority":0.042988177,"Harmonic Closeness Centrality":0.535353535,"Weighted Degree":9,"type":"venue","venue_city":"Molde","venue_country":"Norway","Closeness Centrality":0.518324607,"Hub":0.04298866,"Eigenvector Centrality":0.123310731,"Clustering Coefficient":1.0,"Betweenness Centrality":0.0,"Number of triangles":28},{"Venue_Name":"Kulturhuset I Bergen","Lat":60.3979873,"Long":5.3109383,"Eccentricity":2,"Degree":9,"Authority":0.051356744,"Harmonic Closeness Centrality":0.545454545,"Weighted Degree":9,"type":"venue","venue_city":"Bergen","venue_country":"Norway","Closeness Centrality":0.523809524,"Hub":0.05135725,"Eigenvector Centrality":0.177532787,"Clustering Coefficient":1.0,"Betweenness Centrality":0.0,"Number of triangles":36},{"Venue_Name":"NRK Store studio","Lat":50.7184897,"Long":7.1156121,"Eccentricity":2,"Degree":9,"Authority":0.05067829,"Harmonic Closeness Centrality":0.545454545,"Weighted Degree":11,"type":"venue","venue_city":"Oslo","venue_country":"Norway","Closeness Centrality":0.523809524,"Hub":0.050678708,"Eigenvector Centrality":0.15981049,"Clustering Coefficient":1.0,"Betweenness Centrality":0.0,"Number of triangles":45},{"Venue_Name":"Quimera Gallery Buenos Aires","Lat":60.3939642,"Long":5.3266443,"Eccentricity":0,"Degree":0,"Authority":0.06292172,"Harmonic Closeness Centrality":0.0,"Weighted Degree":10,"type":"venue","venue_city":"Buenos Aires","venue_country":"Argentina","Closeness Centrality":0.0,"Hub":0.062922254,"Eigenvector Centrality":0.034482759,"Clustering Coefficient":1.0,"Betweenness Centrality":0.0,"Number of triangles":45},{"Venue_Name":"Alte M\u00fcnze","Lat":48.8418769,"Long":2.3451397,"Eccentricity":0,"Degree":0,"Authority":0.05067829,"Harmonic Closeness Centrality":0.0,"Weighted Degree":10,"type":"venue","venue_city":"Berlin","venue_country":"Germany","Closeness Centrality":0.0,"Hub":0.050678708,"Eigenvector Centrality":0.034482759,"Clustering Coefficient":1.0,"Betweenness Centrality":0.0,"Number of triangles":45},{"Venue_Name":"National Museum of Norway","Lat":1.352083,"Long":103.819836,"Eccentricity":2,"Degree":10,"Authority":0.0970089,"Harmonic Closeness Centrality":0.550505051,"Weighted Degree":20,"type":"venue","venue_city":"Oslo","venue_country":"Norway","Closeness Centrality":0.526595745,"Hub":0.097009264,"Eigenvector Centrality":0.176795697,"Clustering Coefficient":0.581699346,"Betweenness Centrality":5.0,"Number of triangles":89},{"Venue_Name":"Romanian Athenaeum","Lat":35.67318,"Long":139.729956,"Eccentricity":0,"Degree":0,"Authority":0.05972222,"Harmonic Closeness Centrality":0.0,"Weighted Degree":10,"type":"venue","venue_city":"Bucharest","venue_country":"Hungary","Closeness Centrality":0.0,"Hub":0.059722748,"Eigenvector Centrality":0.034482759,"Clustering Coefficient":1.0,"Betweenness Centrality":0.0,"Number of triangles":45},{"Venue_Name":"UBC","Lat":-8.6370364,"Long":115.2795587,"Eccentricity":0,"Degree":0,"Authority":0.05995738,"Harmonic Closeness Centrality":0.0,"Weighted Degree":10,"type":"venue","venue_city":"Vancouver","venue_country":"Canada","Closeness Centrality":0.0,"Hub":0.059957936,"Eigenvector Centrality":0.034482759,"Clustering Coefficient":1.0,"Betweenness Centrality":0.0,"Number of triangles":45},{"Venue_Name":"Pygm\u00e9teatern","Lat":63.8280443,"Long":20.2686956,"Eccentricity":0,"Degree":0,"Authority":0.042988177,"Harmonic Closeness Centrality":0.0,"Weighted Degree":10,"type":"venue","venue_city":"Stockholm","venue_country":"Sweden","Closeness Centrality":0.0,"Hub":0.04298866,"Eigenvector Centrality":0.034482759,"Clustering Coefficient":1.0,"Betweenness Centrality":0.0,"Number of triangles":28},{"Venue_Name":"Drivhuset bageri og g\u00e5rdsutsalg, Bryne","Lat":60.3628876,"Long":5.3561615,"Eccentricity":2,"Degree":9,"Authority":0.05067829,"Harmonic Closeness Centrality":0.545454545,"Weighted Degree":11,"type":"venue","venue_city":"Bryne","venue_country":"Norway","Closeness Centrality":0.523809524,"Hub":0.050678708,"Eigenvector Centrality":0.15981049,"Clustering Coefficient":1.0,"Betweenness Centrality":0.0,"Number of triangles":45},{"Venue_Name":"E\u0301cole Nationale Supe\u0301rieure d\u2019Arts de Paris","Lat":40.4432027,"Long":-79.9428499,"Eccentricity":0,"Degree":0,"Authority":0.05067829,"Harmonic Closeness Centrality":0.0,"Weighted Degree":10,"type":"venue","venue_city":"Paris","venue_country":"France","Closeness Centrality":0.0,"Hub":0.050678708,"Eigenvector Centrality":0.034482759,"Clustering Coefficient":1.0,"Betweenness Centrality":0.0,"Number of triangles":45},{"Venue_Name":"Victoria Nasjonal Jazzscene","Lat":63.4342131,"Long":10.4110741,"Eccentricity":2,"Degree":7,"Authority":0.042988177,"Harmonic Closeness Centrality":0.535353535,"Weighted Degree":9,"type":"venue","venue_city":"Oslo","venue_country":"Norway","Closeness Centrality":0.518324607,"Hub":0.04298866,"Eigenvector Centrality":0.123310731,"Clustering Coefficient":1.0,"Betweenness Centrality":0.0,"Number of triangles":28},{"Venue_Name":"Havnelageret studio","Lat":59.9141259,"Long":10.7382132,"Eccentricity":2,"Degree":8,"Authority":0.050529968,"Harmonic Closeness Centrality":0.54040404,"Weighted Degree":10,"type":"venue","venue_city":"Bergen","venue_country":"Norway","Closeness Centrality":0.521052632,"Hub":0.05053054,"Eigenvector Centrality":0.166728954,"Clustering Coefficient":1.0,"Betweenness Centrality":0.0,"Number of triangles":28},{"Venue_Name":"Th\u00e9\u00e2tre de L'Uchronie","Lat":53.4684331,"Long":-2.2365536,"Eccentricity":0,"Degree":0,"Authority":0.05410606,"Harmonic Closeness Centrality":0.0,"Weighted Degree":10,"type":"venue","venue_city":"Lyon","venue_country":"France","Closeness Centrality":0.0,"Hub":0.05410651,"Eigenvector Centrality":0.034482759,"Clustering Coefficient":1.0,"Betweenness Centrality":0.0,"Number of triangles":45},{"Venue_Name":"Carnegie Mellon University","Lat":60.3979873,"Long":5.3109383,"Eccentricity":0,"Degree":0,"Authority":0.05067829,"Harmonic Closeness Centrality":0.0,"Weighted Degree":10,"type":"venue","venue_city":"Pittsburgh","venue_country":"United States of America","Closeness Centrality":0.0,"Hub":0.050678708,"Eigenvector Centrality":0.034482759,"Clustering Coefficient":1.0,"Betweenness Centrality":0.0,"Number of triangles":45},{"Venue_Name":"Fridalen kirke","Lat":58.7405474,"Long":5.6924904,"Eccentricity":2,"Degree":9,"Authority":0.05067829,"Harmonic Closeness Centrality":0.545454545,"Weighted Degree":20,"type":"venue","venue_city":"Bergen","venue_country":"Norway","Closeness Centrality":0.523809524,"Hub":0.050678708,"Eigenvector Centrality":0.15981049,"Clustering Coefficient":1.0,"Betweenness Centrality":0.0,"Number of triangles":45},{"Venue_Name":"Sentralen","Lat":59.9103609,"Long":10.7670719,"Eccentricity":2,"Degree":3,"Authority":0.032979283,"Harmonic Closeness Centrality":0.515151515,"Weighted Degree":4,"type":"venue","venue_city":"Oslo","venue_country":"Norway","Closeness Centrality":0.507692308,"Hub":0.032979913,"Eigenvector Centrality":0.081759182,"Clustering Coefficient":1.0,"Betweenness Centrality":0.0,"Number of triangles":6},{"Venue_Name":"Nykirken","Lat":59.907247,"Long":10.740448,"Eccentricity":2,"Degree":9,"Authority":0.05067829,"Harmonic Closeness Centrality":0.545454545,"Weighted Degree":12,"type":"venue","venue_city":"Bergen","venue_country":"Norway","Closeness Centrality":0.523809524,"Hub":0.050678708,"Eigenvector Centrality":0.15981049,"Clustering Coefficient":1.0,"Betweenness Centrality":0.0,"Number of triangles":45},{"Venue_Name":"Chateau Neuf","Lat":59.9138688,"Long":10.7522454,"Eccentricity":2,"Degree":9,"Authority":0.05569338,"Harmonic Closeness Centrality":0.545454545,"Weighted Degree":10,"type":"venue","venue_city":"Oslo","venue_country":"Norway","Closeness Centrality":0.523809524,"Hub":0.055693842,"Eigenvector Centrality":0.167891193,"Clustering Coefficient":1.0,"Betweenness Centrality":0.0,"Number of triangles":45},{"Venue_Name":"Tanznacht (Festival)","Lat":52.5185185,"Long":13.3644649,"Eccentricity":0,"Degree":0,"Authority":0.05067829,"Harmonic Closeness Centrality":0.0,"Weighted Degree":10,"type":"venue","venue_city":"Berlin","venue_country":"Germany","Closeness Centrality":0.0,"Hub":0.050678708,"Eigenvector Centrality":0.034482759,"Clustering Coefficient":1.0,"Betweenness Centrality":0.0,"Number of triangles":45},{"Venue_Name":"Bergen senter for elektronisk kunst BEK","Lat":60.3979873,"Long":5.3109383,"Eccentricity":2,"Degree":8,"Authority":0.052560363,"Harmonic Closeness Centrality":0.54040404,"Weighted Degree":10,"type":"venue","venue_city":"Bergen","venue_country":"Norway","Closeness Centrality":0.521052632,"Hub":0.052560948,"Eigenvector Centrality":0.15196708,"Clustering Coefficient":1.0,"Betweenness Centrality":0.0,"Number of triangles":28},{"Venue_Name":"Trondheim Internasjonale Olavsfest","Lat":59.9061331,"Long":10.7557042,"Eccentricity":2,"Degree":9,"Authority":0.051356744,"Harmonic Closeness Centrality":0.545454545,"Weighted Degree":9,"type":"venue","venue_city":"Trondheim","venue_country":"Norway","Closeness Centrality":0.523809524,"Hub":0.05135725,"Eigenvector Centrality":0.177532787,"Clustering Coefficient":1.0,"Betweenness Centrality":0.0,"Number of triangles":36},{"Venue_Name":"V\u00f6r\u00e5 kirke","Lat":59.912524,"Long":10.7468867,"Eccentricity":0,"Degree":0,"Authority":0.06954783,"Harmonic Closeness Centrality":0.0,"Weighted Degree":12,"type":"venue","venue_city":"V\u00f6r\u00e5","venue_country":"Finland","Closeness Centrality":0.0,"Hub":0.06954843,"Eigenvector Centrality":0.034482759,"Clustering Coefficient":1.0,"Betweenness Centrality":0.0,"Number of triangles":55},{"Venue_Name":"Festsaal Kreuzberg","Lat":53.5413305,"Long":9.9844647,"Eccentricity":0,"Degree":0,"Authority":0.048724692,"Harmonic Closeness Centrality":0.0,"Weighted Degree":10,"type":"venue","venue_city":"Berlin","venue_country":"Germany","Closeness Centrality":0.0,"Hub":0.048725154,"Eigenvector Centrality":0.034482759,"Clustering Coefficient":1.0,"Betweenness Centrality":0.0,"Number of triangles":36},{"Venue_Name":"KODE Art Museum Bergen","Lat":60.388862,"Long":5.3282038,"Eccentricity":2,"Degree":8,"Authority":0.046517555,"Harmonic Closeness Centrality":0.54040404,"Weighted Degree":10,"type":"venue","venue_city":"Bergen","venue_country":"Norway","Closeness Centrality":0.521052632,"Hub":0.046518005,"Eigenvector Centrality":0.139717616,"Clustering Coefficient":1.0,"Betweenness Centrality":0.0,"Number of triangles":36},{"Venue_Name":"Ridehuset Scene, Akershus Festning","Lat":58.9691386,"Long":5.7577336,"Eccentricity":2,"Degree":9,"Authority":0.05067829,"Harmonic Closeness Centrality":0.545454545,"Weighted Degree":11,"type":"venue","venue_city":"Oslo","venue_country":"Norway","Closeness Centrality":0.523809524,"Hub":0.050678708,"Eigenvector Centrality":0.15981049,"Clustering Coefficient":1.0,"Betweenness Centrality":0.0,"Number of triangles":45},{"Venue_Name":"Norrlandsoperan","Lat":60.3979873,"Long":5.3109383,"Eccentricity":0,"Degree":0,"Authority":0.042988177,"Harmonic Closeness Centrality":0.0,"Weighted Degree":10,"type":"venue","venue_city":"Ume\u00e5","venue_country":"Sweden","Closeness Centrality":0.0,"Hub":0.04298866,"Eigenvector Centrality":0.034482759,"Clustering Coefficient":1.0,"Betweenness Centrality":0.0,"Number of triangles":28},{"Venue_Name":"Sharjah Architecture Triennial","Lat":42.9205728,"Long":-78.8802473,"Eccentricity":0,"Degree":0,"Authority":0.05995738,"Harmonic Closeness Centrality":0.0,"Weighted Degree":10,"type":"venue","venue_city":"Sharjah","venue_country":"UAE","Closeness Centrality":0.0,"Hub":0.059957936,"Eigenvector Centrality":0.034482759,"Clustering Coefficient":1.0,"Betweenness Centrality":0.0,"Number of triangles":45},{"Venue_Name":"Munchmuseet","Lat":59.911591,"Long":10.7611426,"Eccentricity":2,"Degree":15,"Authority":0.08990889,"Harmonic Closeness Centrality":0.575757576,"Weighted Degree":21,"type":"venue","venue_city":"Oslo","venue_country":"Norway","Closeness Centrality":0.540983607,"Hub":0.08990912,"Eigenvector Centrality":0.240619933,"Clustering Coefficient":0.538011696,"Betweenness Centrality":21.5,"Number of triangles":92},{"Venue_Name":"NyMusikk","Lat":60.3979873,"Long":5.3109383,"Eccentricity":2,"Degree":9,"Authority":0.05569338,"Harmonic Closeness Centrality":0.545454545,"Weighted Degree":10,"type":"venue","venue_city":"Oslo","venue_country":"Norway","Closeness Centrality":0.523809524,"Hub":0.055693842,"Eigenvector Centrality":0.167891193,"Clustering Coefficient":1.0,"Betweenness Centrality":0.0,"Number of triangles":45},{"Venue_Name":"UrbanSoundArt (Festival)","Lat":50.9479734,"Long":6.9609979,"Eccentricity":2,"Degree":4,"Authority":0.05972222,"Harmonic Closeness Centrality":0.52020202,"Weighted Degree":10,"type":"venue","venue_city":"Fredrikstad","venue_country":"Norway","Closeness Centrality":0.510309278,"Hub":0.059722748,"Eigenvector Centrality":0.098858536,"Clustering Coefficient":1.0,"Betweenness Centrality":0.0,"Number of triangles":45},{"Venue_Name":"Marikollen ungdomsskole","Lat":59.9111246,"Long":10.7652947,"Eccentricity":2,"Degree":9,"Authority":0.05569338,"Harmonic Closeness Centrality":0.545454545,"Weighted Degree":10,"type":"venue","venue_city":"Fjerdingby","venue_country":"Norway","Closeness Centrality":0.523809524,"Hub":0.055693842,"Eigenvector Centrality":0.167891193,"Clustering Coefficient":1.0,"Betweenness Centrality":0.0,"Number of triangles":45},{"Venue_Name":"Oslo Spektrum","Lat":60.3937275,"Long":5.3281331,"Eccentricity":2,"Degree":9,"Authority":0.051356744,"Harmonic Closeness Centrality":0.545454545,"Weighted Degree":9,"type":"venue","venue_city":"Oslo","venue_country":"Norway","Closeness Centrality":0.523809524,"Hub":0.05135725,"Eigenvector Centrality":0.177532787,"Clustering Coefficient":1.0,"Betweenness Centrality":0.0,"Number of triangles":36},{"Venue_Name":"Sardinen USF Verftet","Lat":60.3979873,"Long":5.3109383,"Eccentricity":2,"Degree":7,"Authority":0.042988177,"Harmonic Closeness Centrality":0.535353535,"Weighted Degree":9,"type":"venue","venue_city":"Bergen","venue_country":"Norway","Closeness Centrality":0.518324607,"Hub":0.04298866,"Eigenvector Centrality":0.123310731,"Clustering Coefficient":1.0,"Betweenness Centrality":0.0,"Number of triangles":28},{"Venue_Name":"BIT Teatergarasjen","Lat":48.3918214,"Long":9.9852945,"Eccentricity":2,"Degree":4,"Authority":0.05410606,"Harmonic Closeness Centrality":0.52020202,"Weighted Degree":10,"type":"venue","venue_city":"Bergen","venue_country":"Norway","Closeness Centrality":0.510309278,"Hub":0.05410651,"Eigenvector Centrality":0.099184108,"Clustering Coefficient":1.0,"Betweenness Centrality":0.0,"Number of triangles":45},{"Venue_Name":"Lille Ole Bull Scene","Lat":59.918033,"Long":10.7541217,"Eccentricity":2,"Degree":8,"Authority":0.046517555,"Harmonic Closeness Centrality":0.54040404,"Weighted Degree":10,"type":"venue","venue_city":"Bergen","venue_country":"Norway","Closeness Centrality":0.521052632,"Hub":0.046518005,"Eigenvector Centrality":0.139717616,"Clustering Coefficient":1.0,"Betweenness Centrality":0.0,"Number of triangles":36},{"Venue_Name":"Stereo","Lat":60.3937275,"Long":5.3281331,"Eccentricity":2,"Degree":8,"Authority":0.050529968,"Harmonic Closeness Centrality":0.54040404,"Weighted Degree":10,"type":"venue","venue_city":"Bergen","venue_country":"Norway","Closeness Centrality":0.521052632,"Hub":0.05053054,"Eigenvector Centrality":0.166728954,"Clustering Coefficient":1.0,"Betweenness Centrality":0.0,"Number of triangles":28},{"Venue_Name":"The DiMenna Center for Classical Music","Lat":52.4966371,"Long":13.4518179,"Eccentricity":0,"Degree":0,"Authority":0.048724692,"Harmonic Closeness Centrality":0.0,"Weighted Degree":18,"type":"venue","venue_city":"New York City","venue_country":"United States of America","Closeness Centrality":0.0,"Hub":0.048725154,"Eigenvector Centrality":0.034482759,"Clustering Coefficient":1.0,"Betweenness Centrality":0.0,"Number of triangles":36},{"Venue_Name":"Biermannsg\u00e5rden","Lat":59.932517,"Long":10.7125309,"Eccentricity":2,"Degree":9,"Authority":0.05569338,"Harmonic Closeness Centrality":0.545454545,"Weighted Degree":10,"type":"venue","venue_city":"Oslo","venue_country":"Norway","Closeness Centrality":0.523809524,"Hub":0.055693842,"Eigenvector Centrality":0.167891193,"Clustering Coefficient":1.0,"Betweenness Centrality":0.0,"Number of triangles":45},{"Venue_Name":"Bergen Filharmoniske Orkester","Lat":60.3979873,"Long":5.3109383,"Eccentricity":2,"Degree":7,"Authority":0.042988177,"Harmonic Closeness Centrality":0.535353535,"Weighted Degree":10,"type":"venue","venue_city":"Bergen","venue_country":"Norway","Closeness Centrality":0.518324607,"Hub":0.04298866,"Eigenvector Centrality":0.123310731,"Clustering Coefficient":1.0,"Betweenness Centrality":0.0,"Number of triangles":28},{"Venue_Name":"TASC Studio","Lat":60.3952292,"Long":5.3151736,"Eccentricity":2,"Degree":8,"Authority":0.052560363,"Harmonic Closeness Centrality":0.54040404,"Weighted Degree":10,"type":"venue","venue_city":"Bergen","venue_country":"Norway","Closeness Centrality":0.521052632,"Hub":0.052560948,"Eigenvector Centrality":0.15196708,"Clustering Coefficient":1.0,"Betweenness Centrality":0.0,"Number of triangles":28},{"Venue_Name":"Salt","Lat":51.0514144,"Long":13.7449811,"Eccentricity":2,"Degree":6,"Authority":0.04618372,"Harmonic Closeness Centrality":0.53030303,"Weighted Degree":10,"type":"venue","venue_city":"Oslo","venue_country":"Norway","Closeness Centrality":0.515625,"Hub":0.046184238,"Eigenvector Centrality":0.112374633,"Clustering Coefficient":1.0,"Betweenness Centrality":0.0,"Number of triangles":28},{"Venue_Name":"Klang&Raum","Lat":58.13929,"Long":7.997001,"Eccentricity":0,"Degree":0,"Authority":0.05067829,"Harmonic Closeness Centrality":0.0,"Weighted Degree":10,"type":"venue","venue_city":"Uetikon am See","venue_country":"Switzerland","Closeness Centrality":0.0,"Hub":0.050678708,"Eigenvector Centrality":0.034482759,"Clustering Coefficient":1.0,"Betweenness Centrality":0.0,"Number of triangles":45},{"Venue_Name":"Lydgalleriet","Lat":60.4611521,"Long":5.4378035,"Eccentricity":2,"Degree":11,"Authority":0.07631265,"Harmonic Closeness Centrality":0.555555556,"Weighted Degree":20,"type":"venue","venue_city":"Bergen","venue_country":"Norway","Closeness Centrality":0.529411765,"Hub":0.07631283,"Eigenvector Centrality":0.174649339,"Clustering Coefficient":0.536764706,"Betweenness Centrality":10.5,"Number of triangles":73},{"Venue_Name":"Kabelvouge - en klubb for alle","Lat":51.5023628,"Long":-0.0925716,"Eccentricity":2,"Degree":5,"Authority":0.06999828,"Harmonic Closeness Centrality":0.525252525,"Weighted Degree":10,"type":"venue","venue_city":"Troms\u00f8","venue_country":"Norway","Closeness Centrality":0.512953368,"Hub":0.069998935,"Eigenvector Centrality":0.117588037,"Clustering Coefficient":1.0,"Betweenness Centrality":0.0,"Number of triangles":45},{"Venue_Name":"Troldhaugen","Lat":63.4305149,"Long":10.3950528,"Eccentricity":2,"Degree":7,"Authority":0.06954783,"Harmonic Closeness Centrality":0.535353535,"Weighted Degree":12,"type":"venue","venue_city":"Bergen","venue_country":"Norway","Closeness Centrality":0.518324607,"Hub":0.06954843,"Eigenvector Centrality":0.14354477,"Clustering Coefficient":1.0,"Betweenness Centrality":0.0,"Number of triangles":55},{"Venue_Name":"Alte Feuerwache K\u00f6ln","Lat":60.3979873,"Long":5.31878,"Eccentricity":0,"Degree":0,"Authority":0.05995738,"Harmonic Closeness Centrality":0.0,"Weighted Degree":10,"type":"venue","venue_city":"Cologne","venue_country":"Germany","Closeness Centrality":0.0,"Hub":0.059957936,"Eigenvector Centrality":0.034482759,"Clustering Coefficient":1.0,"Betweenness Centrality":0.0,"Number of triangles":45},{"Venue_Name":"Rudolstadt Music Festival","Lat":-7.5754887,"Long":110.8243272,"Eccentricity":0,"Degree":0,"Authority":0.05995738,"Harmonic Closeness Centrality":0.0,"Weighted Degree":10,"type":"venue","venue_city":"Rudolstadt","venue_country":"Germany","Closeness Centrality":0.0,"Hub":0.059957936,"Eigenvector Centrality":0.034482759,"Clustering Coefficient":1.0,"Betweenness Centrality":0.0,"Number of triangles":45},{"Venue_Name":"MAXXI L\u2019Aquila","Lat":52.217653,"Long":21.0135575,"Eccentricity":0,"Degree":0,"Authority":0.05720434,"Harmonic Closeness Centrality":0.0,"Weighted Degree":10,"type":"venue","venue_city":"L'Aquila","venue_country":"Italy","Closeness Centrality":0.0,"Hub":0.057204813,"Eigenvector Centrality":0.034482759,"Clustering Coefficient":1.0,"Betweenness Centrality":0.0,"Number of triangles":45},{"Venue_Name":"Bergen Konsthall","Lat":60.3880209,"Long":6.2012209,"Eccentricity":2,"Degree":8,"Authority":0.052560363,"Harmonic Closeness Centrality":0.54040404,"Weighted Degree":10,"type":"venue","venue_city":"Bergen","venue_country":"Norway","Closeness Centrality":0.521052632,"Hub":0.052560948,"Eigenvector Centrality":0.15196708,"Clustering Coefficient":1.0,"Betweenness Centrality":0.0,"Number of triangles":28},{"Venue_Name":"Wiener Konzerthaus","Lat":48.889679,"Long":2.3940214,"Eccentricity":0,"Degree":0,"Authority":0.04786388,"Harmonic Closeness Centrality":0.0,"Weighted Degree":10,"type":"venue","venue_city":"Vienna","venue_country":"Austria","Closeness Centrality":0.0,"Hub":0.047864344,"Eigenvector Centrality":0.034482759,"Clustering Coefficient":1.0,"Betweenness Centrality":0.0,"Number of triangles":36},{"Venue_Name":"Singapore Biennale","Lat":60.3979873,"Long":5.3109383,"Eccentricity":0,"Degree":0,"Authority":0.06999828,"Harmonic Closeness Centrality":0.0,"Weighted Degree":10,"type":"venue","venue_city":"Singapore","venue_country":"Singapore","Closeness Centrality":0.0,"Hub":0.069998935,"Eigenvector Centrality":0.034482759,"Clustering Coefficient":1.0,"Betweenness Centrality":0.0,"Number of triangles":45},{"Venue_Name":"\u00d8yafestivalen","Lat":60.3886332,"Long":5.3194463,"Eccentricity":2,"Degree":7,"Authority":0.042988177,"Harmonic Closeness Centrality":0.535353535,"Weighted Degree":9,"type":"venue","venue_city":"Oslo","venue_country":"Norway","Closeness Centrality":0.518324607,"Hub":0.04298866,"Eigenvector Centrality":0.123310731,"Clustering Coefficient":1.0,"Betweenness Centrality":0.0,"Number of triangles":28},{"Venue_Name":"Western Norway University of Applied Sciences","Lat":60.3912628,"Long":5.3220544,"Eccentricity":2,"Degree":7,"Authority":0.042988177,"Harmonic Closeness Centrality":0.535353535,"Weighted Degree":24,"type":"venue","venue_city":"Bergen","venue_country":"Norway","Closeness Centrality":0.518324607,"Hub":0.04298866,"Eigenvector Centrality":0.123310731,"Clustering Coefficient":1.0,"Betweenness Centrality":0.0,"Number of triangles":28},{"Venue_Name":"Kampenjazz","Lat":60.3979873,"Long":5.3109383,"Eccentricity":2,"Degree":6,"Authority":0.04618372,"Harmonic Closeness Centrality":0.53030303,"Weighted Degree":10,"type":"venue","venue_city":"Oslo","venue_country":"Norway","Closeness Centrality":0.515625,"Hub":0.046184238,"Eigenvector Centrality":0.112374633,"Clustering Coefficient":1.0,"Betweenness Centrality":0.0,"Number of triangles":28},{"Venue_Name":"Blow out","Lat":59.908154,"Long":10.7496906,"Eccentricity":2,"Degree":6,"Authority":0.04618372,"Harmonic Closeness Centrality":0.53030303,"Weighted Degree":10,"type":"venue","venue_city":"Oslo","venue_country":"Norway","Closeness Centrality":0.515625,"Hub":0.046184238,"Eigenvector Centrality":0.112374633,"Clustering Coefficient":1.0,"Betweenness Centrality":0.0,"Number of triangles":28},{"Venue_Name":"Resonance FM","Lat":52.5200066,"Long":13.404954,"Eccentricity":0,"Degree":0,"Authority":0.06999828,"Harmonic Closeness Centrality":0.0,"Weighted Degree":10,"type":"venue","venue_city":"London","venue_country":"UK","Closeness Centrality":0.0,"Hub":0.069998935,"Eigenvector Centrality":0.034482759,"Clustering Coefficient":1.0,"Betweenness Centrality":0.0,"Number of triangles":45},{"Venue_Name":"Kunsthuset Kabuso","Lat":60.3952292,"Long":5.3151736,"Eccentricity":2,"Degree":8,"Authority":0.052560363,"Harmonic Closeness Centrality":0.54040404,"Weighted Degree":10,"type":"venue","venue_city":"\u00d8ystese","venue_country":"Norway","Closeness Centrality":0.521052632,"Hub":0.052560948,"Eigenvector Centrality":0.15196708,"Clustering Coefficient":1.0,"Betweenness Centrality":0.0,"Number of triangles":28},{"Venue_Name":"Alsion","Lat":48.1578827,"Long":14.0176046,"Eccentricity":0,"Degree":0,"Authority":0.05067829,"Harmonic Closeness Centrality":0.0,"Weighted Degree":10,"type":"venue","venue_city":"S\u00f8nderborg","venue_country":"Denmark","Closeness Centrality":0.0,"Hub":0.050678708,"Eigenvector Centrality":0.034482759,"Clustering Coefficient":1.0,"Betweenness Centrality":0.0,"Number of triangles":45},{"Venue_Name":"Nusantara Arts","Lat":48.8628365,"Long":2.3427064,"Eccentricity":0,"Degree":0,"Authority":0.05995738,"Harmonic Closeness Centrality":0.0,"Weighted Degree":10,"type":"venue","venue_city":"Buffalo","venue_country":"USA","Closeness Centrality":0.0,"Hub":0.059957936,"Eigenvector Centrality":0.034482759,"Clustering Coefficient":1.0,"Betweenness Centrality":0.0,"Number of triangles":45},{"Venue_Name":"Roxy","Lat":47.9941873,"Long":7.8347578,"Eccentricity":0,"Degree":0,"Authority":0.05410606,"Harmonic Closeness Centrality":0.0,"Weighted Degree":10,"type":"venue","venue_city":"Ulm","venue_country":"Germany","Closeness Centrality":0.0,"Hub":0.05410651,"Eigenvector Centrality":0.034482759,"Clustering Coefficient":1.0,"Betweenness Centrality":0.0,"Number of triangles":45},{"Venue_Name":"Schl8hof","Lat":46.8497798,"Long":9.5293084,"Eccentricity":0,"Degree":0,"Authority":0.05067829,"Harmonic Closeness Centrality":0.0,"Weighted Degree":10,"type":"venue","venue_city":"Wels","venue_country":"Austria","Closeness Centrality":0.0,"Hub":0.050678708,"Eigenvector Centrality":0.034482759,"Clustering Coefficient":1.0,"Betweenness Centrality":0.0,"Number of triangles":45},{"Venue_Name":"Norwegian Broadcasting Corporation","Lat":60.0251644,"Long":11.1023014,"Eccentricity":2,"Degree":9,"Authority":0.051356744,"Harmonic Closeness Centrality":0.545454545,"Weighted Degree":9,"type":"venue","venue_city":"Oslo","venue_country":"Norway","Closeness Centrality":0.523809524,"Hub":0.05135725,"Eigenvector Centrality":0.177532787,"Clustering Coefficient":1.0,"Betweenness Centrality":0.0,"Number of triangles":36},{"Venue_Name":"Bentara Budaya","Lat":25.3514041,"Long":55.3940315,"Eccentricity":0,"Degree":0,"Authority":0.05995738,"Harmonic Closeness Centrality":0.0,"Weighted Degree":10,"type":"venue","venue_city":"Ketewel","venue_country":"Indonesia","Closeness Centrality":0.0,"Hub":0.059957936,"Eigenvector Centrality":0.034482759,"Clustering Coefficient":1.0,"Betweenness Centrality":0.0,"Number of triangles":45},{"Venue_Name":"Townhouse","Lat":59.9061331,"Long":10.7557042,"Eccentricity":2,"Degree":9,"Authority":0.05569338,"Harmonic Closeness Centrality":0.545454545,"Weighted Degree":10,"type":"venue","venue_city":"Oslo","venue_country":"Norway","Closeness Centrality":0.523809524,"Hub":0.055693842,"Eigenvector Centrality":0.167891193,"Clustering Coefficient":1.0,"Betweenness Centrality":0.0,"Number of triangles":45},{"Venue_Name":"Elbphilarmonie","Lat":43.0839059,"Long":-89.3636951,"Eccentricity":0,"Degree":0,"Authority":0.075608514,"Harmonic Closeness Centrality":0.0,"Weighted Degree":20,"type":"venue","venue_city":"Hamburg","venue_country":"Germany","Closeness Centrality":0.0,"Hub":0.07560859,"Eigenvector Centrality":0.068965517,"Clustering Coefficient":0.529411765,"Betweenness Centrality":0.0,"Number of triangles":81},{"Venue_Name":"Blow Out! (Festival)","Lat":59.9315253,"Long":10.7547862,"Eccentricity":2,"Degree":9,"Authority":0.05569338,"Harmonic Closeness Centrality":0.545454545,"Weighted Degree":10,"type":"venue","venue_city":"Oslo","venue_country":"Norway","Closeness Centrality":0.523809524,"Hub":0.055693842,"Eigenvector Centrality":0.167891193,"Clustering Coefficient":1.0,"Betweenness Centrality":0.0,"Number of triangles":45},{"Venue_Name":"Kolben Kulturhus","Lat":69.6421509,"Long":18.9446983,"Eccentricity":2,"Degree":3,"Authority":0.05067829,"Harmonic Closeness Centrality":0.515151515,"Weighted Degree":10,"type":"venue","venue_city":"Kolbotn","venue_country":"Norway","Closeness Centrality":0.507692308,"Hub":0.050678708,"Eigenvector Centrality":0.081759182,"Clustering Coefficient":1.0,"Betweenness Centrality":0.0,"Number of triangles":45},{"Venue_Name":"Oslo Fjordhage","Lat":60.7164399,"Long":8.291109,"Eccentricity":2,"Degree":6,"Authority":0.04618372,"Harmonic Closeness Centrality":0.53030303,"Weighted Degree":10,"type":"venue","venue_city":"Oslo","venue_country":"Norway","Closeness Centrality":0.515625,"Hub":0.046184238,"Eigenvector Centrality":0.112374633,"Clustering Coefficient":1.0,"Betweenness Centrality":0.0,"Number of triangles":28}]